{
"type": "FeatureCollection",
"crs": { "type": "name", "properties": { "name": "urn:ogc:def:crs:OGC:1.3:CRS84" } },
                                                                                
"features": [
{ "type": "Feature", "properties": { "NAME": "PNC Arena", "ADDRESS": "1400 Edwards Mill Rd", "CITY": "Raleigh", "TELEPHONE": "(919) 832-2857", "ZIP": "27607", "CATEGORY": "Cultural", "GROUPING": "Cultural Centers", "ICON": "Sports Facilities", "URL": "http:\/\/www.rbccenter.com", "X": 2082463.34336, "Y": 747440.48267, "PHOTO": "RBC Center.jpg", "MINSCALE": 0, "MAXSCALE": 0, "Location": null }, "geometry": { "type": "Point", "coordinates": [ -78.721896325686373, 35.803374831445815 ] } },
{ "type": "Feature", "properties": { "NAME": "Raleigh Amtrak Station", "ADDRESS": "320 W Cabarrus Street", "CITY": "Raleigh", "TELEPHONE": "(919) 833-7594", "ZIP": "27601", "CATEGORY": "Transportation", "GROUPING": "Transportation", "ICON": "Train Stations", "URL": "http:\/\/www.amtrak.com", "X": 2105066.2204, "Y": 737173.00616, "PHOTO": "Raleigh Amtrak Station.jpg", "MINSCALE": 0, "MAXSCALE": 0, "Location": null }, "geometry": { "type": "Point", "coordinates": [ -78.645793331895689, 35.774969449960736 ] } },
{ "type": "Feature", "properties": { "NAME": "Wendell Historic Post Office", "ADDRESS": "1101 E Fourth St", "CITY": "Wendell", "TELEPHONE": null, "ZIP": "27591", "CATEGORY": "Cultural", "GROUPING": "Cultural Centers", "ICON": "Museums", "URL": "http:\/\/wendellhistoricalsociety.com\/postoffice.aspx", "X": 2187549.32709, "Y": 740436.256852, "PHOTO": "Wendell Historic Post Office.jpg", "MINSCALE": 0, "MAXSCALE": 0, "Location": null }, "geometry": { "type": "Point", "coordinates": [ -78.36765623671873, 35.782808475768654 ] } },
{ "type": "Feature", "properties": { "NAME": "Wendell Farmers Market", "ADDRESS": "10 S Cypress Street", "CITY": "Wendell", "TELEPHONE": "(919) 365-6318", "ZIP": "27591", "CATEGORY": "Cultural", "GROUPING": "Cultural Centers", "ICON": "Entertainment", "URL": "http:\/\/www.wendellchamber.com\/WHATSNEW\/WendellFarmersMarket\/tabid\/120\/Default.aspx", "X": 2186389.86287, "Y": 739694.738978, "PHOTO": "Wendell Farmers Market.jpg", "MINSCALE": 0, "MAXSCALE": 0, "Location": null }, "geometry": { "type": "Point", "coordinates": [ -78.371581223187249, 35.780791573284532 ] } },
{ "type": "Feature", "properties": { "NAME": "The Rose Garden and Little Theatre", "ADDRESS": "301 Pogue St", "CITY": "Raleigh", "TELEPHONE": "(919) 821-4579", "ZIP": "27607", "CATEGORY": "Cultural", "GROUPING": "Cultural Centers", "ICON": "Entertainment", "URL": "http:\/\/www.raleighlittletheatre.org", "X": 2098151.52491, "Y": 743072.19974299997557, "PHOTO": "The Rose Garden.jpg", "MINSCALE": 0, "MAXSCALE": 0, "Location": "Downtown" }, "geometry": { "type": "Point", "coordinates": [ -78.669038159197612, 35.791241752311159 ] } },
{ "type": "Feature", "properties": { "NAME": "McKimmon Center", "ADDRESS": "2901 Thurman Dr", "CITY": "Raleigh", "TELEPHONE": "(919) 515-2011", "ZIP": "27607", "CATEGORY": "Cultural", "GROUPING": "Cultural Centers", "ICON": "Entertainment", "URL": "http:\/\/www.mckimmon.ncsu.edu", "X": 2093393.52918, "Y": 739964.24763, "PHOTO": "McKimmon Center.jpg", "MINSCALE": 0, "MAXSCALE": 0, "Location": "Downtown" }, "geometry": { "type": "Point", "coordinates": [ -78.685115005572939, 35.782745860410024 ] } },
{ "type": "Feature", "properties": { "NAME": "Raleigh City Museum", "ADDRESS": "220 Fayetteville St # 100", "CITY": "Raleigh", "TELEPHONE": "(919) 832-3775", "ZIP": "27601", "CATEGORY": "Cultural", "GROUPING": "Cultural Centers", "ICON": "Museums", "URL": "http:\/\/www.raleighcitymuseum.org\/", "X": 2106941.46731, "Y": 738152.450068, "PHOTO": "Raleigh City Museum.jpg", "MINSCALE": 0, "MAXSCALE": 0, "Location": "Downtown" }, "geometry": { "type": "Point", "coordinates": [ -78.639459429518283, 35.777641715700248 ] } },
{ "type": "Feature", "properties": { "NAME": "Capital City BMX", "ADDRESS": "516 Dennis Ave", "CITY": "Raleigh", "TELEPHONE": "(919) 834-4269", "ZIP": "27604", "CATEGORY": "Cultural", "GROUPING": "Cultural Centers", "ICON": "Sports Facilities", "URL": "http:\/\/www.ccbmx.com\/", "X": 2114612.2374, "Y": 744912.22887, "PHOTO": "Capital City BMX.jpg", "MINSCALE": 0, "MAXSCALE": 0, "Location": "Downtown" }, "geometry": { "type": "Point", "coordinates": [ -78.613509855410157, 35.796133392994946 ] } },
{ "type": "Feature", "properties": { "NAME": "Walnut Creek Softball Complex", "ADDRESS": "1201 Sunnybrook Rd", "CITY": "Raleigh", "TELEPHONE": "(919) 250-2725", "ZIP": "27610", "CATEGORY": "Cultural", "GROUPING": "Cultural Centers", "ICON": "Sports Facilities", "URL": "http:\/\/www.raleighnc.gov", "X": 2124451.68983, "Y": 731962.45031, "PHOTO": "Walnut Creek Softball Complex.jpg", "MINSCALE": 0, "MAXSCALE": 0, "Location": null }, "geometry": { "type": "Point", "coordinates": [ -78.580514612055481, 35.760446997855183 ] } },
{ "type": "Feature", "properties": { "NAME": "Five County Stadium", "ADDRESS": "1501 Nc Highway 39", "CITY": "Zebulon", "TELEPHONE": "(919) 269-2287", "ZIP": "27597", "CATEGORY": "Cultural", "GROUPING": "Cultural Centers", "ICON": "Sports Facilities", "URL": "http:\/\/www.gomudcats.com", "X": 2216393.30582, "Y": 753192.57386, "PHOTO": "Five County Stadium.jpg", "MINSCALE": 0, "MAXSCALE": 0, "Location": null }, "geometry": { "type": "Point", "coordinates": [ -78.27009253869717, 35.817309152310834 ] } },
{ "type": "Feature", "properties": { "NAME": "Raleigh Convention Center", "ADDRESS": "500 South Salisbury Street", "CITY": "Raleigh", "TELEPHONE": "(919) 996-8500", "ZIP": "27601", "CATEGORY": "Cultural", "GROUPING": "Cultural Centers", "ICON": "Entertainment", "URL": "http:\/\/www.raleighconvention.com", "X": 2106409.03038, "Y": 736705.407031, "PHOTO": "Raleigh Convention Center.jpg", "MINSCALE": 76800, "MAXSCALE": 0, "Location": "Downtown" }, "geometry": { "type": "Point", "coordinates": [ -78.641272091588533, 35.773671573437291 ] } },
{ "type": "Feature", "properties": { "NAME": "Haywood Hall", "ADDRESS": "211 New Bern Pl", "CITY": "Raleigh", "TELEPHONE": "(919) 832-8357", "ZIP": "27601", "CATEGORY": "Cultural", "GROUPING": "Cultural Centers", "ICON": "Entertainment", "URL": "http:\/\/www.haywoodhall.org\/", "X": 2108018.92414, "Y": 739287.445502, "PHOTO": "Haywood Hall.jpg", "MINSCALE": 0, "MAXSCALE": 0, "Location": "Downtown" }, "geometry": { "type": "Point", "coordinates": [ -78.635812904927022, 35.780749064045317 ] } },
{ "type": "Feature", "properties": { "NAME": "NC Museum of Art", "ADDRESS": "2110 Blue Ridge Road", "CITY": "Raleigh", "TELEPHONE": "(919) 839-6262", "ZIP": "27607", "CATEGORY": "Cultural", "GROUPING": "Cultural Centers", "ICON": "Museums", "URL": "http:\/\/www.ncartmuseum.org\/", "X": 2088281.49249, "Y": 749929.970804, "PHOTO": "NC Museum of Art.jpg", "MINSCALE": 0, "MAXSCALE": 0, "Location": null }, "geometry": { "type": "Point", "coordinates": [ -78.70224982784147, 35.810167753152932 ] } },
{ "type": "Feature", "properties": { "NAME": "Progress Energy Performing Arts Center", "ADDRESS": "2 E South St", "CITY": "Raleigh", "TELEPHONE": "(919) 831-6060", "ZIP": "27601", "CATEGORY": "Cultural", "GROUPING": "Cultural Centers", "ICON": "Entertainment", "URL": "http:\/\/www.progressenergycenter.com", "X": 2106921.86039, "Y": 735920.83871799998451, "PHOTO": "Progress Energy Performing Arts Center.jpg", "MINSCALE": 0, "MAXSCALE": 0, "Location": "Downtown" }, "geometry": { "type": "Point", "coordinates": [ -78.639552849265499, 35.771511034021799 ] } },
{ "type": "Feature", "properties": { "NAME": "NC State Fair Grounds", "ADDRESS": "1025 Blue Ridge Rd", "CITY": "Raleigh", "TELEPHONE": "(919) 821-7400", "ZIP": "27607", "CATEGORY": "Cultural", "GROUPING": "Cultural Centers", "ICON": "Entertainment", "URL": "http:\/\/www.ncstatefair.org\/", "X": 2086647.31859, "Y": 744308.786837, "PHOTO": "NC State Fair Grounds.jpg", "MINSCALE": 0, "MAXSCALE": 0, "Location": null }, "geometry": { "type": "Point", "coordinates": [ -78.707817234443453, 35.794738194809796 ] } },
{ "type": "Feature", "properties": { "NAME": "Reynolds Coliseum", "ADDRESS": "2411 Dunn Ave", "CITY": "Raleigh", "TELEPHONE": null, "ZIP": "27607", "CATEGORY": "Cultural", "GROUPING": "Cultural Centers", "ICON": "Sports Facilities", "URL": "http:\/\/www.ncsu.edu", "X": 2097901.32988, "Y": 740285.035042, "PHOTO": "Reynolds Coliseum.jpg", "MINSCALE": 0, "MAXSCALE": 0, "Location": "Downtown" }, "geometry": { "type": "Point", "coordinates": [ -78.669913047769057, 35.783586923170233 ] } },
{ "type": "Feature", "properties": { "NAME": "WRAL Soccer Center", "ADDRESS": "7700 Perry Creek Rd", "CITY": "Raleigh", "TELEPHONE": "(919) 790-2274", "ZIP": "27616", "CATEGORY": "Cultural", "GROUPING": "Cultural Centers", "ICON": "Sports Facilities", "URL": "http:\/\/www.caslnc.com\/home\/landing.asp", "X": 2133631.96248, "Y": 777119.502711, "PHOTO": "WRAL Soccer Center.jpg", "MINSCALE": 0, "MAXSCALE": 0, "Location": null }, "geometry": { "type": "Point", "coordinates": [ -78.54887967515397, 35.884393422567577 ] } },
{ "type": "Feature", "properties": { "NAME": "Time Warner Cable Music Pavilion", "ADDRESS": "3801 Rock Quarry Rd", "CITY": "Raleigh", "TELEPHONE": "(919) 831-6666", "ZIP": "27610", "CATEGORY": "Cultural", "GROUPING": "Cultural Centers", "ICON": "Entertainment", "URL": "http:\/\/www.livenation.com", "X": 2125661.12606, "Y": 728017.7951409999514, "PHOTO": "Time Warner Cable Music Pavilion at Walnut Creek.jpg", "MINSCALE": 0, "MAXSCALE": 0, "Location": null }, "geometry": { "type": "Point", "coordinates": [ -78.57649477606455, 35.74959574707092 ] } },
{ "type": "Feature", "properties": { "NAME": "NC Museum of Natural Sciences", "ADDRESS": "11 W. Jones Street", "CITY": "Raleigh", "TELEPHONE": "(919) 733-7450", "ZIP": "27603", "CATEGORY": "Cultural", "GROUPING": "Cultural Centers", "ICON": "Museums", "URL": "http:\/\/www.naturalsciences.org", "X": 2106916.46933, "Y": 739810.74235, "PHOTO": "NC Museum of Natural Sciences.jpg", "MINSCALE": 0, "MAXSCALE": 0, "Location": "Downtown" }, "geometry": { "type": "Point", "coordinates": [ -78.639523405151635, 35.782197762324067 ] } },
{ "type": "Feature", "properties": { "NAME": "NC Museum of History", "ADDRESS": "5 E Edenton St", "CITY": "Raleigh", "TELEPHONE": "(919) 833-7413", "ZIP": "27601", "CATEGORY": "Cultural", "GROUPING": "Cultural Centers", "ICON": "Museums", "URL": "http:\/\/ncmuseumofhistory.org\/", "X": 2107202.54749, "Y": 739591.976717, "PHOTO": "NC Museum of History.jpg", "MINSCALE": 0, "MAXSCALE": 0, "Location": "Downtown" }, "geometry": { "type": "Point", "coordinates": [ -78.638561565945878, 35.781593893965365 ] } },
{ "type": "Feature", "properties": { "NAME": "Marbles Kids Museum", "ADDRESS": "201 E. Hargett Street", "CITY": "Raleigh", "TELEPHONE": "(919) 834-4040", "ZIP": "27601", "CATEGORY": "Cultural", "GROUPING": "Cultural Centers", "ICON": "Museums", "URL": "http:\/\/www.marbleskidsmuseum.org", "X": 2107922.79113, "Y": 738467.8579, "PHOTO": "Marbles Kids Museum.jpg", "MINSCALE": 0, "MAXSCALE": 0, "Location": "Downtown" }, "geometry": { "type": "Point", "coordinates": [ -78.636147143659727, 35.778498393993708 ] } },
{ "type": "Feature", "properties": { "NAME": "Cary Amtrak Station", "ADDRESS": "211 North Academy Street", "CITY": "Cary", "TELEPHONE": "(800) USA-RAIL", "ZIP": "27511", "CATEGORY": "Transportation", "GROUPING": "Transportation", "ICON": "Train Stations", "URL": "http:\/\/www.amtrak.com", "X": 2064577.04055, "Y": 741945.41295, "PHOTO": "Cary Amtrak Station.jpg", "MINSCALE": 0, "MAXSCALE": 0, "Location": null }, "geometry": { "type": "Point", "coordinates": [ -78.782257454856605, 35.788401071464044 ] } },
{ "type": "Feature", "properties": { "NAME": "Moore Square Station", "ADDRESS": "233 S Wilmington St", "CITY": "Raleigh", "TELEPHONE": "(919) 485-7433", "ZIP": "27601", "CATEGORY": "Transportation", "GROUPING": "Transportation", "ICON": "Bus Stations", "URL": "http:\/\/www.raleigh-nc.org", "X": 2107522.56326, "Y": 738056.62742499995511, "PHOTO": "Moore Square Station.jpg", "MINSCALE": 0, "MAXSCALE": 0, "Location": null }, "geometry": { "type": "Point", "coordinates": [ -78.637501529906942, 35.777372649756103 ] } },
{ "type": "Feature", "properties": { "NAME": "Dorton Arena", "ADDRESS": "1025 Blue Ridge Rd", "CITY": "Raleigh", "TELEPHONE": "(919) 821-7400", "ZIP": "27607", "CATEGORY": "Cultural", "GROUPING": "Cultural Centers", "ICON": "Entertainment", "URL": "http:\/\/www.ncstatefair.org\/dorton.htm", "X": 2085897.35454, "Y": 744029.014102, "PHOTO": "Dorton Arena.jpg", "MINSCALE": 0, "MAXSCALE": 0, "Location": null }, "geometry": { "type": "Point", "coordinates": [ -78.710348920897744, 35.793975620004268 ] } },
{ "type": "Feature", "properties": { "NAME": "Carter Finley Stadium", "ADDRESS": "4600 Trinity Rd", "CITY": "Raleigh", "TELEPHONE": "(919) 515-3080", "ZIP": "27607", "CATEGORY": "Cultural", "GROUPING": "Cultural Centers", "ICON": "Sports Facilities", "URL": "http:\/\/www.ncsu.edu", "X": 2083162.16808, "Y": 746501.20174, "PHOTO": "Carter Finley Stadium.jpg", "MINSCALE": 0, "MAXSCALE": 0, "Location": null }, "geometry": { "type": "Point", "coordinates": [ -78.719548534318378, 35.800788972414651 ] } },
{ "type": "Feature", "properties": { "NAME": "Wake Forest Farmers Market", "ADDRESS": "S White St at Wait Ave", "CITY": "Wake Forest", "TELEPHONE": null, "ZIP": "27587", "CATEGORY": "Cultural", "GROUPING": "Cultural Centers", "ICON": "Shopping Centers", "URL": "http:\/\/www.wakeforestfarmersmarket.org\/", "X": 2145034.82747, "Y": 811420.706419, "PHOTO": "Wake Forest Farmers Market.jpg", "MINSCALE": 0, "MAXSCALE": 0, "Location": null }, "geometry": { "type": "Point", "coordinates": [ -78.50981422872735, 35.978474545555194 ] } },
{ "type": "Feature", "properties": { "NAME": "Triangle Town Center Mall", "ADDRESS": "5959 Triangle Town Blvd", "CITY": "Raleigh", "TELEPHONE": "(919) 792-2222", "ZIP": "27616", "CATEGORY": "Cultural", "GROUPING": "Cultural Centers", "ICON": "Shopping Centers", "URL": "http:\/\/www.triangletowncenter.com", "X": 2125613.48475, "Y": 770661.94181, "PHOTO": "Triangle Town Center Mall.jpg", "MINSCALE": 0, "MAXSCALE": 0, "Location": null }, "geometry": { "type": "Point", "coordinates": [ -78.576041546464722, 35.866750406238111 ] } },
{ "type": "Feature", "properties": { "NAME": "North Hills", "ADDRESS": "4300 Six Forks Rd", "CITY": "Raleigh", "TELEPHONE": "(919) 833-7755", "ZIP": "27609", "CATEGORY": "Cultural", "GROUPING": "Cultural Centers", "ICON": "Shopping Centers", "URL": "http:\/\/www.northhillsraleigh.com\/", "X": 2105790.91941, "Y": 759782.79001, "PHOTO": "North Hills.jpg", "MINSCALE": 0, "MAXSCALE": 0, "Location": null }, "geometry": { "type": "Point", "coordinates": [ -78.643076136648816, 35.837077250922299 ] } },
{ "type": "Feature", "properties": { "NAME": "NC Farmers Market", "ADDRESS": "1201 Agriculture St", "CITY": "Raleigh", "TELEPHONE": "(919) 733-7417", "ZIP": "27603", "CATEGORY": "Cultural", "GROUPING": "Cultural Centers", "ICON": "Sports Facilities", "URL": "http:\/\/www.ncagr.gov\/markets\/facilities\/markets", "X": 2100232.61065, "Y": 733159.06668, "PHOTO": "NC Farmers Market.jpg", "MINSCALE": 0, "MAXSCALE": 0, "Location": "Downtown" }, "geometry": { "type": "Point", "coordinates": [ -78.662134666405805, 35.763988270754041 ] } },
{ "type": "Feature", "properties": { "NAME": "City Market", "ADDRESS": "127 W Hargett St", "CITY": "Raleigh", "TELEPHONE": "(919) 821-8023", "ZIP": "27601", "CATEGORY": "Cultural", "GROUPING": "Cultural Centers", "ICON": "Shopping Centers", "URL": "http:\/\/www.citymarketraleigh.com\/", "X": 2108024.71055, "Y": 737636.509499, "PHOTO": "City Market.jpg", "MINSCALE": 0, "MAXSCALE": 0, "Location": null }, "geometry": { "type": "Point", "coordinates": [ -78.635813816261447, 35.776213416777345 ] } },
{ "type": "Feature", "properties": { "NAME": "Theatre in the Park", "ADDRESS": "107 Pullen Rd", "CITY": "Raleigh", "TELEPHONE": "(919) 831-6936", "ZIP": "27607", "CATEGORY": "Cultural", "GROUPING": "Cultural Centers", "ICON": "Entertainment", "URL": "http:\/\/www.theatreinthepark.com\/", "X": 2100113.13549, "Y": 740555.44559, "PHOTO": "Pullen Park.jpg", "MINSCALE": 0, "MAXSCALE": 0, "Location": "Downtown" }, "geometry": { "type": "Point", "coordinates": [ -78.662452616586322, 35.784309383578503 ] } },
{ "type": "Feature", "properties": { "NAME": "Crossroads Plaza", "ADDRESS": "213 Crossroads Blvd", "CITY": "Cary", "TELEPHONE": "(919) 233-8087", "ZIP": "27518", "CATEGORY": "Cultural", "GROUPING": "Cultural Centers", "ICON": "Shopping Centers", "URL": "http:\/\/www.shopcrossroadsplaza.com\/", "X": 2077727.6281, "Y": 731880.34352, "PHOTO": "Crossroads Plaza.jpg", "MINSCALE": 0, "MAXSCALE": 0, "Location": null }, "geometry": { "type": "Point", "coordinates": [ -78.738005716695611, 35.760662034284422 ] } },
{ "type": "Feature", "properties": { "NAME": "Beaver Creek Crossing", "ADDRESS": "1581 Beaver Creek Commons Dr", "CITY": "Apex", "TELEPHONE": "(919) 367-8158", "ZIP": "27502", "CATEGORY": "Cultural", "GROUPING": "Cultural Centers", "ICON": "Shopping Centers", "URL": "http:\/\/www.apexchamber.com", "X": 2036571.20549, "Y": 726249.67368, "PHOTO": "Beaver Creek Crossing.jpg", "MINSCALE": 0, "MAXSCALE": 0, "Location": null }, "geometry": { "type": "Point", "coordinates": [ -78.876753833051282, 35.745412180036801 ] } },
{ "type": "Feature", "properties": { "NAME": "Brier Creek Commons", "ADDRESS": "Brier Creek Pkwy and Highway 70 Raleigh", "CITY": "Raleigh", "TELEPHONE": "(704) 295-4000", "ZIP": "27617", "CATEGORY": "Cultural", "GROUPING": "Cultural Centers", "ICON": "Shopping Centers", "URL": "http:\/\/www.shopbriercreekcommons.com\/", "X": 2063910.56288, "Y": 784705.407159, "PHOTO": "Brier Creek Commons.jpg", "MINSCALE": 0, "MAXSCALE": 0, "Location": null }, "geometry": { "type": "Point", "coordinates": [ -78.784191255986698, 35.905876656705473 ] } },
{ "type": "Feature", "properties": { "NAME": "Cary Towne Center", "ADDRESS": "1105 Walnut St", "CITY": "Cary", "TELEPHONE": "(919) 467-0145", "ZIP": "27511", "CATEGORY": "Cultural", "GROUPING": "Cultural Centers", "ICON": "Shopping Centers", "URL": "http:\/\/www.shopcarytownecentermall.com\/", "X": 2070740.50953, "Y": 736504.378889, "PHOTO": "Cary Towne Center.jpg", "MINSCALE": 0, "MAXSCALE": 0, "Location": null }, "geometry": { "type": "Point", "coordinates": [ -78.761519459250437, 35.773414050175688 ] } },
{ "type": "Feature", "properties": { "NAME": "Cameron Village", "ADDRESS": "1900 Cameron St", "CITY": "Raleigh", "TELEPHONE": "(919) 821-1350", "ZIP": "27605", "CATEGORY": "Cultural", "GROUPING": "Cultural Centers", "ICON": "Shopping Centers", "URL": "http:\/\/www.shopsofcameronvillage.com\/", "X": 2100741.39309, "Y": 742982.064753, "PHOTO": "Cameron Village.jpg", "MINSCALE": 0, "MAXSCALE": 0, "Location": null }, "geometry": { "type": "Point", "coordinates": [ -78.660209964731862, 35.789986932279959 ] } },
{ "type": "Feature", "properties": { "NAME": "Crabtree Valley Mall", "ADDRESS": "4325 Glenwood Ave", "CITY": "Raleigh", "TELEPHONE": "(919) 787-8993", "ZIP": "27612", "CATEGORY": "Cultural", "GROUPING": "Cultural Centers", "ICON": "Shopping Centers", "URL": "http:\/\/www.crabtree-valley-mall.com\/", "X": 2094894.38248, "Y": 760900.1257, "PHOTO": "Crabtree Valley Mall.jpg", "MINSCALE": 0, "MAXSCALE": 0, "Location": null }, "geometry": { "type": "Point", "coordinates": [ -78.679827111248684, 35.840248920355627 ] } },
{ "type": "Feature", "properties": { "NAME": "IMAX Theater", "ADDRESS": "110 S Person St", "CITY": "Raleigh", "TELEPHONE": null, "ZIP": "27601", "CATEGORY": "Cultural", "GROUPING": "Cultural Centers", "ICON": "Entertainment", "URL": null, "X": 2108133.03579, "Y": 738745.895076, "PHOTO": "IMAX Theater.jpg", "MINSCALE": 0, "MAXSCALE": 0, "Location": "Downtown" }, "geometry": { "type": "Point", "coordinates": [ -78.635434884885285, 35.779260121631239 ] } },
{ "type": "Feature", "properties": { "NAME": "Wake Forest Park and Ride", "ADDRESS": "430 S White St", "CITY": "Wake Forest", "TELEPHONE": null, "ZIP": "27587", "CATEGORY": "Transportation", "GROUPING": "Transportation", "ICON": "Bus Stations", "URL": "http:\/\/www.wakeforestnc.gov\/busservice.aspx", "X": 2144698.2307, "Y": 810089.54307, "PHOTO": "WakeForest.jpg", "MINSCALE": 0, "MAXSCALE": 0, "Location": null }, "geometry": { "type": "Point", "coordinates": [ -78.510973996305509, 35.974822302033765 ] } },
{ "type": "Feature", "properties": { "NAME": "Wake Forest College Birthplace Museum", "ADDRESS": "440 N Main St", "CITY": "Wake Forest", "TELEPHONE": "(919) 556-2911", "ZIP": "27587", "CATEGORY": "Cultural", "GROUPING": "Cultural Centers", "ICON": "Museums", "URL": "http:\/\/www.wakeforestbirthplace.org\/index.html", "X": 2145675.74778, "Y": 813581.822503, "PHOTO": "Wake Forest College Birthplace Museum.jpg", "MINSCALE": 0, "MAXSCALE": 0, "Location": null }, "geometry": { "type": "Point", "coordinates": [ -78.507611866048492, 35.984402565952998 ] } },
{ "type": "Feature", "properties": { "NAME": "The Factory", "ADDRESS": "1839 S Main St", "CITY": "Wake Forest", "TELEPHONE": "(919) 435-1839", "ZIP": "27587", "CATEGORY": "Cultural", "GROUPING": "Cultural Centers", "ICON": "Shopping Centers", "URL": "http:\/\/www.eatshopplay.com\/index.php", "X": 2140133.60007, "Y": 801616.65286, "PHOTO": "The Factory.jpg", "MINSCALE": 0, "MAXSCALE": 0, "Location": null }, "geometry": { "type": "Point", "coordinates": [ -78.526537079149733, 35.951607306385696 ] } },
{ "type": "Feature", "properties": { "NAME": "Heritage Golf Club", "ADDRESS": "1250 Heritage Club Ave", "CITY": "Wake Forest", "TELEPHONE": "(919) 435-2020", "ZIP": "27587", "CATEGORY": "Cultural", "GROUPING": "Cultural Centers", "ICON": "Sports Facilities", "URL": "http:\/\/www.playheritagegolf.com\/golf\/proto\/heritagegc\/", "X": 2149187.08721, "Y": 801311.89593, "PHOTO": "Heritage Golf Club.jpg", "MINSCALE": 0, "MAXSCALE": 0, "Location": null }, "geometry": { "type": "Point", "coordinates": [ -78.495954217713972, 35.950647656307744 ] } },
{ "type": "Feature", "properties": { "NAME": "Paschal Golf Club", "ADDRESS": "555 Stadium Dr", "CITY": "Wake Forest", "TELEPHONE": "(919) 556-5861", "ZIP": "27587", "CATEGORY": "Cultural", "GROUPING": "Cultural Centers", "ICON": "Sports Facilities", "URL": null, "X": 2142002.82566, "Y": 812490.46871, "PHOTO": "Paschal Golf Club.jpg", "MINSCALE": 0, "MAXSCALE": 0, "Location": null }, "geometry": { "type": "Point", "coordinates": [ -78.520044085258633, 35.981453957973109 ] } },
{ "type": "Feature", "properties": { "NAME": "Capital Golf Center", "ADDRESS": "9820 Capital Blvd", "CITY": "Wake Forest", "TELEPHONE": "(919) 570-6500", "ZIP": "27587", "CATEGORY": "Cultural", "GROUPING": "Cultural Centers", "ICON": "Sports Facilities", "URL": "http:\/\/www.capital-golf.com\/", "X": 2133837.6166, "Y": 788277.597193, "PHOTO": "Capital Golf Center.jpg", "MINSCALE": 0, "MAXSCALE": 0, "Location": null }, "geometry": { "type": "Point", "coordinates": [ -78.548013924549068, 35.915043904200907 ] } },
{ "type": "Feature", "properties": { "NAME": "Talley Student Center", "ADDRESS": "2610 Cates Ave", "CITY": "Raleigh", "TELEPHONE": "(919) 515-3503", "ZIP": "27695", "CATEGORY": "Cultural", "GROUPING": "Cultural Centers", "ICON": "Museums", "URL": "http:\/\/www.ncsu.edu\/gregg\/", "X": 2097435.55194, "Y": 740361.75897, "PHOTO": "Gregg Museum of Art & Design.jpg", "MINSCALE": 0, "MAXSCALE": 0, "Location": "Downtown" }, "geometry": { "type": "Point", "coordinates": [ -78.671482610607512, 35.783801950260226 ] } },
{ "type": "Feature", "properties": { "NAME": "Contemporary Art Museum", "ADDRESS": "409 West Martin St", "CITY": "Raleigh", "TELEPHONE": "(919) 513-0946", "ZIP": "27603", "CATEGORY": "Cultural", "GROUPING": "Cultural Centers", "ICON": "Museums", "URL": "http:\/\/camraleigh.org\/", "X": 2105100.78759, "Y": 737901.61199, "PHOTO": "Contemporary Art Museum.jpg", "MINSCALE": 0, "MAXSCALE": 0, "Location": "Downtown" }, "geometry": { "type": "Point", "coordinates": [ -78.645668030028673, 35.776970800051487 ] } },
{ "type": "Feature", "properties": { "NAME": "Joel Lane Museum House", "ADDRESS": "728 West Hargett St", "CITY": "Raleigh", "TELEPHONE": "(919) 833-3431", "ZIP": "27603", "CATEGORY": "Cultural", "GROUPING": "Cultural Centers", "ICON": "Museums", "URL": "http:\/\/www.joellane.org\/", "X": 2103570.41401, "Y": 738575.60276, "PHOTO": "Joel Lane Museum House.jpg", "MINSCALE": 0, "MAXSCALE": 0, "Location": "Downtown" }, "geometry": { "type": "Point", "coordinates": [ -78.650819425914534, 35.778837342800365 ] } },
{ "type": "Feature", "properties": { "NAME": "Raleigh Transit Operations Center", "ADDRESS": "4104 Poole Rd", "CITY": null, "TELEPHONE": null, "ZIP": null, "CATEGORY": null, "GROUPING": null, "ICON": "Bus Stations", "URL": null, "X": 0.0, "Y": 0.0, "PHOTO": null, "MINSCALE": 0, "MAXSCALE": 0, "Location": null }, "geometry": { "type": "Point", "coordinates": [ -78.566000864521442, 35.767068620314511 ] } },
{ "type": "Feature", "properties": { "NAME": "Hunt Library", "ADDRESS": null, "CITY": "Raleigh", "TELEPHONE": null, "ZIP": null, "CATEGORY": "Cultural", "GROUPING": "Cultural Centers", "ICON": "Entertainment", "URL": null, "X": 0.0, "Y": 0.0, "PHOTO": null, "MINSCALE": 0, "MAXSCALE": 0, "Location": "Downtown" }, "geometry": { "type": "Point", "coordinates": [ -78.676251766434504, 35.769236087996205 ] } },
{ "type": "Feature", "properties": { "NAME": "NC Governor's Mansion", "ADDRESS": "11 W. Jones Street", "CITY": "Raleigh", "TELEPHONE": "(919) 733-7450", "ZIP": "27603", "CATEGORY": "Cultural", "GROUPING": "Cultural Centers", "ICON": "Museums", "URL": "http:\/\/www.naturalsciences.org", "X": 2106916.46933, "Y": 739810.74235, "PHOTO": "NC Museum of Natural Sciences.jpg", "MINSCALE": 0, "MAXSCALE": 0, "Location": "Downtown" }, "geometry": { "type": "Point", "coordinates": [ -78.634039653175677, 35.782986240774775 ] } }
]
}
